{"BYD": [{"type": "BYD", "name": "比亚迪汽车上海卓景（星荟中心店）", "address": "上海市虹口区星荟中心天潼路360号L101-102室", "lng": 121.485476, "lat": 31.246538}, {"type": "BYD", "name": "比亚迪汽车吉庆（龙之梦店）", "address": "上海市虹口区西江湾路388号B01-22/23商铺", "lng": 121.477189, "lat": 31.270968}, {"type": "BYD", "name": "比亚迪汽车海洋网（徐汇正大乐城环态荣迪商超店）", "address": "上海市徐汇区中山南二路699号2幢105-108号", "lng": 121.45814, "lat": 31.186395}, {"type": "BYD", "name": "比亚迪汽车弘仁宝佳（环球港店）", "address": "上海市普陀区中山北路3300号室内1[L]层L1149号商铺", "lng": 121.4122, "lat": 31.23152}, {"type": "BYD", "name": "比亚迪汽车海洋网（虹口万泰君升宏迪商超店）", "address": "上海市虹口区广灵二路259号1025-1028", "lng": 121.475101, "lat": 31.28371}, {"type": "BYD", "name": "比亚迪汽车海洋网（浦东世博源华裕金耀商超店）", "address": "上海市浦东新区世博大道1368号四区一楼4L102-12", "lng": 121.492921, "lat": 31.181712}, {"type": "BYD", "name": "比亚迪汽车王朝网（君和升迪徐汇光启城商超店）", "address": "上海市徐汇区宜山路455号一层186、188、189、190、191、1102商铺", "lng": 121.428514, "lat": 31.183919}, {"type": "BYD", "name": "比亚迪汽车上海卓景（大融城店）", "address": "上海市静安区沪太路1111弄静安大融城【1】号楼【1】层【137】室", "lng": 121.426743, "lat": 31.279943}, {"type": "BYD", "name": "比亚迪汽车王朝网（联通昊蕴普陀绿地缤纷城商超店)", "address": "上海市普陀区曹杨路2033号130A、130B、131A、131B、132A、132B室", "lng": 121.404015, "lat": 31.256566}, {"type": "BYD", "name": "", "address": "上海市浦东新区北艾路1760、1762、1764", "lng": 121.52239, "lat": 31.179737}, {"type": "BYD", "name": "比亚迪汽车弘仁宝佳（置汇旭辉广场店）", "address": "上海市浦东新区洋泾街道张杨路2389号旭辉广场S2-1F-02号商铺", "lng": 121.554535, "lat": 31.243103}, {"type": "BYD", "name": "比亚迪汽车上海卓景（五角场万达店）", "address": "上海市杨浦区国宾路58号五角场万达广场1层1135/1136室", "lng": 121.513631, "lat": 31.301289}, {"type": "BYD", "name": "比亚迪汽车王朝网（上海兴迪4S店）", "address": "上海市普陀区同普路1388号", "lng": 121.3672, "lat": 31.23372}, {"type": "BYD", "name": "比亚迪汽车王朝网（上海弘仁宝佳4S店）", "address": "上海市江杨南路980号", "lng": 121.466991, "lat": 31.324647}, {"type": "BYD", "name": "比亚迪汽车华裕（金桥国际店）", "address": "上海市浦东新区金桥国际商业广场张杨路3611弄7号111、112室", "lng": 121.57947, "lat": 31.256033}, {"type": "BYD", "name": "比亚迪汽车王朝网（华裕金迪浦东金桥国际商超店）", "address": "上海市浦东新区金桥国际商业广场张杨路3611弄7号111、112室", "lng": 121.579682, "lat": 31.256002}, {"type": "BYD", "name": "比亚迪汽车海洋网（上海弘仁4S店）", "address": "上海市杨浦区军工路1609号", "lng": 121.545364, "lat": 31.314657}, {"type": "BYD", "name": "比亚迪汽车海洋网（上海华裕启迪4S店）", "address": "上海市浦东新区康杉路118号1号楼一层101室，二层201室", "lng": 121.559229, "lat": 31.156926}, {"type": "BYD", "name": "比亚迪汽车海洋网（闵行万象城隆顺合城市展厅）", "address": "上海市闵行区虹莘路3999号万象城MT1栋1层03单元", "lng": 121.371479, "lat": 31.170062}, {"type": "BYD", "name": "比亚迪汽车王朝网（上海卓景4S店）", "address": "上海浦东新区居里路108号乙单元", "lng": 121.596259, "lat": 31.21173}, {"type": "BYD", "name": "比亚迪汽车王朝网（卓昇裕明宝山经纬汇商超店)", "address": "上海市宝山区经地路99弄1幢3号1楼3217-3218号", "lng": 121.399066, "lat": 31.325517}, {"type": "BYD", "name": "比亚迪汽车彤新（徐汇华泾天街店）", "address": "上海市徐汇区华泾路459号A-1F-C10、A-1F-C11号", "lng": 121.455345, "lat": 31.119205}, {"type": "BYD", "name": "比亚迪汽车王朝网（上海君和4S店）", "address": "上海市普陀区金昌路1858号", "lng": 121.345751, "lat": 31.2749}, {"type": "BYD", "name": "比亚迪汽车王朝网（上海富林4S店）", "address": "上海市普陀区真陈路39号", "lng": 121.35326, "lat": 31.29229}, {"type": "BYD", "name": "比亚迪汽车吉庆（漫游城店）", "address": "上海市闵行区闵虹路8号【中庚漫游城】L103-SP", "lng": 121.39847, "lat": 31.131163}, {"type": "BYD", "name": "比亚迪汽车王朝网（上海联通新虹4S店）", "address": "上海闵行区北翟路2621号", "lng": 121.330964, "lat": 31.222407}, {"type": "BYD", "name": "比亚迪汽车王朝网（环态昊迪闵行宝龙城商超店）", "address": "上海市闵行区漕宝路3299弄16号一层M-S2-F1-003", "lng": 121.354724, "lat": 31.158388}, {"type": "BYD", "name": "比亚迪汽车王朝网（上海华帆旗开4S店）", "address": "上海市浦东新区浦东北路2190弄19号", "lng": 121.57883, "lat": 31.318916}, {"type": "BYD", "name": "比亚迪汽车王朝网（上海弘仁锐豪4S店）", "address": "上海市沪南公路3021号", "lng": 121.5738749, "lat": 31.1390341}, {"type": "BYD", "name": "比亚迪汽车上海兴迪（江桥万达店）", "address": "海市嘉定区金沙江西路1051弄1-100号【上海江桥万达】内购物中心【1F】层【1056，1057，1058】号商铺", "lng": 121.324531, "lat": 31.2404}, {"type": "BYD", "name": "比亚迪汽车华帆旗开（森兰花园城店）", "address": "上海市浦东新区启帆路517号1层（L105-6-7）号商铺", "lng": 121.591178, "lat": 31.31309}, {"type": "BYD", "name": "比亚迪汽车海洋网（上海华裕华耀4S店）", "address": "上海市浦东新区新金桥路999号", "lng": 121.623851, "lat": 31.253563}, {"type": "BYD", "name": "比亚迪汽车王朝网（上海彤新4S店）", "address": "上海市闵行区集心路188号", "lng": 121.413974, "lat": 31.110072}, {"type": "BYD", "name": "比亚迪汽车海洋网（上海原鸿4S店）", "address": "上海市闵行区集心路188号", "lng": 121.413206, "lat": 31.108032}, {"type": "BYD", "name": "比亚迪汽车王朝网（上海华裕4S店）", "address": "上海浦东金桥出口加工区金苏路238号", "lng": 121.62949, "lat": 31.25609}, {"type": "BYD", "name": "比亚迪汽车海洋网（上海华帆书豪4S店）", "address": "上海市宝山区水产路1508号7幢一层", "lng": 121.475322, "lat": 31.377031}, {"type": "BYD", "name": "比亚迪汽车王朝网（上海利港环态4S店）", "address": "上海市闵行区双柏路1333弄19号", "lng": 121.431487, "lat": 31.086571}, {"type": "BYD", "name": "比亚迪汽车海洋网（黎安路弘仁宝毅城市展厅）", "address": "上海市闵行区黎安路1399弄18号", "lng": 121.351695, "lat": 31.121377}, {"type": "BYD", "name": "比亚迪汽车王朝网（弘仁东神黎安路城市展厅）", "address": "上海市闵行区黎安路1399弄20号", "lng": 121.351607, "lat": 31.121211}, {"type": "BYD", "name": "比亚迪汽车海洋网（上海联通星诚4S店）", "address": "上海市闵行区江月路1059号2号楼B室", "lng": 121.520829, "lat": 31.085776}, {"type": "BYD", "name": "比亚迪汽车利港环态（宝龙广场店）", "address": "上海市宝山区同济路699号", "lng": 121.481142, "lat": 31.396511}, {"type": "BYD", "name": "比亚迪汽车海洋网（上海君升4S店）", "address": "上海市嘉定区浏翔公路1908号", "lng": 121.319655, "lat": 31.333158}, {"type": "BYD", "name": "比亚迪汽车海洋网（上海宇迪辉驰4S店）", "address": "上海市宝山区潘泾路1101号", "lng": 121.389802, "lat": 31.383874}, {"type": "BYD", "name": "比亚迪汽车海洋网（上海众深依旺4S店）", "address": "上海市松江区泗泾镇九干路50号5幢101、102、103室", "lng": 121.295148, "lat": 31.126374}, {"type": "BYD", "name": "比亚迪汽车王朝网（上海君和迪生4S店）", "address": "上海市浦东新区航头镇沪南路4789弄318号1-2层", "lng": 121.587794, "lat": 31.070292}, {"type": "BYD", "name": "比亚迪汽车海洋网（上海垒福4S店）", "address": "上海市嘉定区曹安公路4215号", "lng": 121.253788, "lat": 31.275135}, {"type": "BYD", "name": "比亚迪汽车王朝网（上海昕鑫4S店）", "address": "上海市宝山区月罗路2368号2幢", "lng": 121.353493, "lat": 31.410862}, {"type": "BYD", "name": "比亚迪汽车上海卓景（浦江万达店）", "address": "上海闵行区永跃路360号1057室", "lng": 121.511593, "lat": 31.027091}, {"type": "BYD", "name": "比亚迪汽车上海卓景（马桥万达店）", "address": "上海市闵行区富岩路121号1007室", "lng": 121.373459, "lat": 31.023605}, {"type": "BYD", "name": "比亚迪汽车海洋网（上海富林迪耀4S店）", "address": "上海市嘉定区沪宜公路4491号4幢", "lng": 121.227423, "lat": 31.368491}, {"type": "BYD", "name": "比亚迪汽车吉庆（松江万达店）", "address": "上海市松江区广富林路658号万达商场1007铺位", "lng": 121.242935, "lat": 31.057546}, {"type": "BYD", "name": "比亚迪汽车王朝网（上海众深4S店）", "address": "上海市青浦区盈港东路6655号", "lng": 121.17567, "lat": 31.160785}, {"type": "BYD", "name": "比亚迪汽车王朝网（上海联通4S店）", "address": "上海市嘉定区安驰路829号", "lng": 121.168615, "lat": 31.282378}, {"type": "BYD", "name": "比亚迪汽车王朝网（上海汇羿4S店）", "address": "上海市浦东新区宣桥镇沪南公路8615号", "lng": 121.6888, "lat": 31.03631}, {"type": "BYD", "name": "比亚迪汽车海洋网（上海汇建4S店）", "address": "上海市浦东新区沪南公路8615号", "lng": 121.68869, "lat": 31.036256}, {"type": "BYD", "name": "比亚迪汽车王朝网（上海吉庆4S店）", "address": "上海市松江区沪松路999号6幢104室", "lng": 121.257605, "lat": 31.032691}, {"type": "BYD", "name": "比亚迪汽车海洋网（上海顺迪4S店）", "address": "上海市松江区沪松路999号6幢103室", "lng": 121.256821, "lat": 31.032761}, {"type": "BYD", "name": "比亚迪汽车王朝网（上海联通宝亭4S店）", "address": "上海市奉贤区沪杭公路1095号A幢", "lng": 121.4457, "lat": 30.958426}, {"type": "BYD", "name": "比亚迪汽车海洋网（上海联通浦悦4S店）", "address": "上海市青浦区北青公路9665号", "lng": 121.124052, "lat": 31.186656}, {"type": "BYD", "name": "比亚迪汽车众深（万达茂店）", "address": "上海市青浦区淀山湖大道851号万达茂商场1F层A区1030号", "lng": 121.082797, "lat": 31.133394}, {"type": "BYD", "name": "比亚迪汽车海洋网（上海叶红4S店）", "address": "上海市金山区亭林镇亭卫公路6618-9号", "lng": 121.345715, "lat": 30.848657}, {"type": "BYD", "name": "比亚迪汽车王朝网（上海贸驰4S店）", "address": "上海市金山区亭卫公路2285号", "lng": 121.357782, "lat": 30.781584}, {"type": "BYD", "name": "比亚迪汽车贸驰（万达广场店）", "address": "上海市金山区龙皓路1088号1F层1009A", "lng": 121.334957, "lat": 30.75429}, {"type": "BYD", "name": "比亚迪汽车王朝网（洲迪金山万达商超店）", "address": "上海市金山区万达广场1F-1009A号", "lng": 121.335935, "lat": 30.754151}], "AION": [{"type": "AION", "name": "广汽埃安上海星品宝黎环球港商超展示中心", "address": "由上海市普陀区中山北路3300号上海环球港B1层变更至上海市普陀区中山北路3300号上海环球港4层", "lng": 121.412622764546, "lat": 31.233391222976}, {"type": "AION", "name": "广汽埃安上海君和体验中心", "address": " 上海市普陀区金昌路1858号", "lng": 121.343720499029, "lat": 31.275719110262}, {"type": "AION", "name": "广汽埃安上海长岚展示中心", "address": "上海市闵行区沪青平公路415-433号", "lng": 121.344840446204, "lat": 31.175799590546}, {"type": "AION", "name": "广汽埃安上海晋熙万泰商超展示中心", "address": "上海市虹口区广灵二路259号（万泰广场）", "lng": 121.47544097758, "lat": 31.283784138339}, {"type": "AION", "name": "广汽埃安上海星品宝黎百联南方商超展示中心", "address": "上海市闵行区沪闵路7250号百联南方购物中心2区1F-002号", "lng": 121.400356039847, "lat": 31.132110186757}, {"type": "AION", "name": "广汽埃安上海弘仁宝裕体验中心", "address": " 上海市宝山区江杨南路1505号", "lng": 121.467104743736, "lat": 31.334667489683}, {"type": "AION", "name": "广汽埃安上海君和五角场万达商超展示中心", "address": "上海市杨浦区淞沪路77号五角场万达广场", "lng": 121.512791343282, "lat": 31.301504892282}, {"type": "AION", "name": "广汽埃安上海星品宝黎体验中心", "address": "上海市闵行区黎安路1399弄18号", "lng": 121.352216780298, "lat": 31.120698940372}, {"type": "AION", "name": "广汽埃安上海炜业龙阳体验中心", "address": "上海市浦东新区龙阳路1277号", "lng": 121.535034231591, "lat": 31.198180470256}, {"type": "AION", "name": "广汽埃安上海劲立徐汇华泾天街商场展示中心", "address": "上海市徐汇区华泾路459号L102龙湖上海华泾天街", "lng": 121.451014155895, "lat": 31.119339192969}, {"type": "AION", "name": "广汽埃安上海劲立体验中心", "address": " 上海市青浦区嘉松中路799弄26号", "lng": 121.213692909175, "lat": 31.247542855212}, {"type": "AION", "name": "广汽埃安上海劲立颛桥万达商超展示中心", "address": "上海市闵行区颛兴东路1570号（颛桥万达）", "lng": 121.406329798023, "lat": 31.071220751344}, {"type": "AION", "name": "广汽埃安上海成套体验中心", "address": " 上海市闵行区三鲁公路889号", "lng": 121.531388851726, "lat": 31.034159844503}, {"type": "AION", "name": "广汽埃安上海晋熙上海车市体验中心", "address": "上海市浦东新区沪南路4789弄311号", "lng": 121.58918321289, "lat": 31.069381010403}], "Beijing": [{"type": "Beijing", "name": "上海吉绅汽车销售服务有限公司", "address": "上海市嘉定区江桥镇金园一路235号", "lng": 121.3189024168, "lat": 31.260777847152}], "R": [{"type": "R", "name": "R汽车 上海百联南方体验中心", "address": "上海市闵行区沪闵路7250号百联南方购物中心2区1F-024", "lng": 121.399908276874, "lat": 31.131173389393}, {"type": "R", "name": "R汽车 上海新天地体验中心", "address": "上海市黄浦区马当路347号", "lng": 121.475439376419, "lat": 31.214471961523}, {"type": "R", "name": "R汽车 上海南翔印象城体验中心", "address": "上海市嘉定区南翔镇陈翔公路2299号L1-21", "lng": 121.306765381682, "lat": 31.30438266328}, {"type": "R", "name": "R汽车 上海陆家嘴尚悦湾体验中心", "address": "上海市浦东新区银城路66号尚悦湾一层107a单元", "lng": 121.50936212375, "lat": 31.241099435789}, {"type": "R", "name": "R汽车 上海五角场万达广场体验中心", "address": "上海市杨浦区淞沪路77号五角场万达L1301室", "lng": 121.514750394512, "lat": 31.30023839886}, {"type": "R", "name": "R汽车 上海张江长泰广场体验中心", "address": "上海浦东金科路2889弄长泰广场6座D1-07A", "lng": 121.601702079689, "lat": 31.205069486654}, {"type": "R", "name": "R汽车 上海环球港体验中心", "address": "上海市普陀区中山北路3300号环球港B1150", "lng": 121.412883019567, "lat": 31.233343308892}, {"type": "R", "name": "R汽车 上海九亭金地广场体验中心", "address": "上海市松江区九亭镇沪亭北路99弄3号九亭金地广场L1-016", "lng": 121.319589154963, "lat": 31.139760063001}, {"type": "R", "name": "R汽车 上海虹口凯德龙之梦体验中心", "address": "上海市虹口区西江湾路388号A幢01-4041", "lng": 121.478280985882, "lat": 31.270818774229}, {"type": "R", "name": "R汽车 上海浦东新达汇三林体验中心", "address": "上海市浦东新区永泰路1058弄新达汇广场L1-111", "lng": 121.526067656126, "lat": 31.141733977684}, {"type": "R", "name": "R汽车 上海嘉定江桥万达体验中心", "address": "上海市嘉定区金沙江西路1051弄万达广场1F1109--1110铺位", "lng": 121.325322739654, "lat": 31.240774854703}, {"type": "R", "name": "R汽车 上海普陀百联中环体验中心", "address": "上海市普陀区真光路1288号 百联中环购物广场B区1楼", "lng": 121.383256915355, "lat": 31.246335597533}, {"type": "R", "name": "R汽车 上海松江万达广场体验中心", "address": "上海市松江区广富林路658号万达广场1楼1029号铺位", "lng": 121.243084843619, "lat": 31.057753708902}, {"type": "R", "name": "R汽车 上海龙湖宝山天街体验中心", "address": "上海市宝山区龙湖宝山天街丹霞山路50弄1号1F-60", "lng": 121.361699660445, "lat": 31.359005875977}, {"type": "R", "name": "R汽车 上海百联西郊体验中心", "address": "上海市长宁区仙霞西路88号西郊百联购物广场1楼1122号店铺", "lng": 121.370309526494, "lat": 31.208832014837}, {"type": "R", "name": "R汽车 上海奉贤万达广场体验中心(待开业)", "address": "上海市奉贤区南桥镇沪杭公路1608号（上海奉贤万达广场1010商铺）", "lng": 121.447976659033, "lat": 30.941776001763}, {"type": "R", "name": "R汽车 上海青浦吾悦广场体验中心", "address": "上海市青浦区淀山湖大道218号吾悦广场一号门一楼038号", "lng": 121.095353227894, "lat": 31.144370044189}, {"type": "R", "name": "R汽车 龙湖上海闵行天街体验中心", "address": " R汽车龙湖上海闵行天街体验中心", "lng": 121.414961791587, "lat": 31.025888926096}], "JiHe": [{"type": "JiHe", "name": "上海晋熙汽车销售服务有限公司", "address": "上海市浦东新区沪南公路4777弄258号", "lng": 121.58815079679414, "lat": 31.07125350238548}, {"type": "JiHe", "name": "上海弘仁星品汽车销售服务有限公司", "address": "上海市杨浦区军工路1601号", "lng": 121.52620859769735, "lat": 31.2731365414002}, {"type": "JiHe", "name": "上海明友泓浩汽车销售有限公司", "address": "上海市奉贤区南桥镇环城西路1488号", "lng": 121.44084348799153, "lat": 30.92740536156965}, {"type": "JiHe", "name": "上海天麦汽车销售服务有限公司", "address": "上海市静安区沪太路1111号", "lng": 121.42700529223337, "lat": 31.27930570100733}, {"type": "JiHe", "name": "上海浦之利汽车有限公司", "address": "上海市普陀区金沙江路2145号普罗娜广场B座一楼", "lng": 121.3683003389103, "lat": 31.235786430141836}, {"type": "JiHe", "name": "上海中隆汽车销售服务有限公司", "address": "上海闵行区中春路7169号", "lng": 121.34591649152894, "lat": 31.13932515515941}, {"type": "JiHe", "name": "上海吉庆新能源汽车销售有限公司", "address": "上海市松江区茸平路19号", "lng": 121.25517310735152, "lat": 31.03346917498971}], "LingPao": [{"type": "JiHe", "name": "颛桥万达店", "address": "上海市闵行区颛桥万达1楼1008铺零跑汽车", "lng": 121.406334, "lat": 31.071151}, {"type": "JiHe", "name": "马桥万达店", "address": "上海市闵行区马桥万达一楼1057零跑体验中心", "lng": 121.372951, "lat": 31.023398}, {"type": "JiHe", "name": "九亭金地广场店", "address": "上海市松江区沪亭北路99弄3号1楼L1026", "lng": 121.318799, "lat": 31.13923}, {"type": "JiHe", "name": "静安店", "address": "上海市静安区万荣路1150号", "lng": 121.440865, "lat": 31.292187}, {"type": "JiHe", "name": "五角场店", "address": "上海市杨浦区五角场万达B座1楼1137铺位零跑汽车", "lng": 121.513303, "lat": 31.301133}, {"type": "JiHe", "name": "嘉定宝龙城店", "address": "上海市嘉定区阿克苏路1099号宝龙广场一楼142室", "lng": 121.260559, "lat": 31.345639}], "NeZha": [{"type": "NeZha", "name": "上海普陀近铁广场直营店", "address": "上海市普陀区真北路818号北区一楼N-F1-01商铺", "lng": 121.381916601714, "lat": 31.232581210368}, {"type": "NeZha", "name": "上海浦东尚悦湾直营店", "address": "上海市浦东区银城路66号1楼109", "lng": 121.510417370197, "lat": 31.24048316723}, {"type": "NeZha", "name": "上海中柏汽车销售服务有限公司", "address": "上海市松江区荣乐西路860号新理想广场1F-76", "lng": 121.196870980378, "lat": 31.016682878739}, {"type": "NeZha", "name": "上海古轩汽车销售服务有限公司", "address": "上海市闵行区吴中路1588号爱琴海购物公园", "lng": 121.372717030117, "lat": 31.174891889846}, {"type": "NeZha", "name": "上海浦东沪南公路直营店", "address": "上海市浦东新区沪南公路4518号", "lng": 121.584114183107, "lat": 31.083531492546}, {"type": "NeZha", "name": "上海宝山江杨南路直营店", "address": "上海市宝山区江杨南路1685号", "lng": 121.467023006608, "lat": 31.338313401928}, {"type": "NeZha", "name": "上海闵行虹桥天地直营店", "address": "上海市闵行区绍虹路99号1层106室", "lng": 121.314659896897, "lat": 31.193033817266}, {"type": "NeZha", "name": "上海杨浦万达直营店", "address": "上海市国宾路58号万达广场B座1138号", "lng": 121.51330804612, "lat": 31.301138875294}, {"type": "NeZha", "name": "上海古道汽车销售服务有限公司", "address": "上海闵行区都会路2058号1栋", "lng": 121.418977905008, "lat": 31.066319543733}, {"type": "NeZha", "name": "上海英枫汽车销售服务有限公司", "address": "上海市金山区枫泾镇朱枫公路9135号", "lng": 121.012875963331, "lat": 30.894266452245}]}