[
    {
        "id": 13487,
        "buy_car_type": "",
        "join_shop_name": "上海卓景虹口区星荟中心体验中心",
        "short_name": "比亚迪汽车上海卓景（星荟中心店）",
        "join_shop_code": "BYDSH035J-TY-02",
        "lng": "121.485476",
        "lat": "31.246538",
        "address": "上海市虹口区星荟中心天潼路360号L101-102室",
        "tel": "021-58877088",
        "jsd_type": 1,
        "distance": 2.05
    },
    {
        "id": 13394,
        "buy_car_type": "",
        "join_shop_name": "上海吉庆新能源虹口区龙之梦体验中心",
        "short_name": "比亚迪汽车吉庆（龙之梦店）",
        "join_shop_code": "BYDSH041J-TY-03",
        "lng": "121.477189",
        "lat": "31.270968",
        "address": "上海市虹口区西江湾路388号B01-22/23商铺",
        "tel": "021-57662888",
        "jsd_type": 1,
        "distance": 4.39
    },
    {
        "id": 14604,
        "buy_car_type": null,
        "join_shop_name": "上海环态荣迪汽车销售有限公司",
        "short_name": "比亚迪汽车海洋网（徐汇正大乐城环态荣迪商超店）",
        "join_shop_code": "BYDESH004SC",
        "lng": "121.45814",
        "lat": "31.186395",
        "address": "上海市徐汇区中山南二路699号2幢105-108号",
        "tel": "021-60196136",
        "jsd_type": 1,
        "distance": 5.22
    },
    {
        "id": 12346,
        "buy_car_type": "",
        "join_shop_name": "上海弘仁宝佳新能源普陀区环球港体验中心",
        "short_name": "比亚迪汽车弘仁宝佳（环球港店）",
        "join_shop_code": "BYDSH036J-TY-01",
        "lng": "121.4122",
        "lat": "31.23152",
        "address": "上海市普陀区中山北路3300号室内1[L]层L1149号商铺",
        "tel": "66291361",
        "jsd_type": 1,
        "distance": 5.75
    },
    {
        "id": 14216,
        "buy_car_type": "秦Pro 超越版/2021款e2/宋PLUS DM-i/宋PLUS EV/海豚",
        "join_shop_name": "上海君升宏迪汽车销售服务有限公司",
        "short_name": "比亚迪汽车海洋网（虹口万泰君升宏迪商超店）",
        "join_shop_code": "BYDESH001SC",
        "lng": "121.475101",
        "lat": "31.28371",
        "address": "上海市虹口区广灵二路259号1025-1028",
        "tel": "18917765924",
        "jsd_type": 1,
        "distance": 5.79
    },
    {
        "id": 14529,
        "buy_car_type": null,
        "join_shop_name": "上海华裕金耀汽车销售有限公司",
        "short_name": "比亚迪汽车海洋网（浦东世博源华裕金耀商超店）",
        "join_shop_code": "BYDESH002SC",
        "lng": "121.492921",
        "lat": "31.181712",
        "address": "上海市浦东新区世博大道1368号四区一楼4L102-12",
        "tel": "021-58993576",
        "jsd_type": 1,
        "distance": 5.88
    },
    {
        "id": 14377,
        "buy_car_type": "汉EV/汉DM/宋Pro DM-i/秦PLUS DM-i/秦PLUS EV/第三代F3/第二代宋Pro/元Pro/2021款唐DM/唐DM-i/宋MAX升级版",
        "join_shop_name": "上海君和升迪汽车销售服务有限公司",
        "short_name": "比亚迪汽车王朝网（君和升迪徐汇光启城商超店）",
        "join_shop_code": "BYDSH005SC",
        "lng": "121.428514",
        "lat": "31.183919",
        "address": "上海市徐汇区宜山路455号一层186、188、189、190、191、1102商铺",
        "tel": "",
        "jsd_type": 1,
        "distance": 6.77
    },
    {
        "id": 12639,
        "buy_car_type": "",
        "join_shop_name": "上海卓景静安区大融城体验中心",
        "short_name": "比亚迪汽车上海卓景（大融城店）",
        "join_shop_code": "BYDSH035J-TY-01",
        "lng": "121.426743",
        "lat": "31.279943",
        "address": "上海市静安区沪太路1111弄静安大融城【1】号楼【1】层【137】室",
        "tel": "021-58877088",
        "jsd_type": 1,
        "distance": 6.91
    },
    {
        "id": 14136,
        "buy_car_type": "汉EV/汉DM/宋Pro DM-i/秦PLUS DM-i/秦PLUS EV/第三代F3/第二代宋Pro/元Pro/2021款唐DM/唐DM-i/宋MAX升级版",
        "join_shop_name": "上海联通昊蕴汽车销售有限责任公司",
        "short_name": "比亚迪汽车王朝网（联通昊蕴普陀绿地缤纷城商超店)",
        "join_shop_code": "BYDSH002SC",
        "lng": "121.404015",
        "lat": "31.256566",
        "address": "上海市普陀区曹杨路2033号130A、130B、131A、131B、132A、132B室",
        "tel": "",
        "jsd_type": 1,
        "distance": 7.09
    },
    {
        "id": 12842,
        "buy_car_type": null,
        "join_shop_name": "上海卓景世博城市展厅",
        "short_name": "",
        "join_shop_code": "BYDSH003XSZT",
        "lng": "121.52239",
        "lat": "31.179737",
        "address": "上海市浦东新区北艾路1760、1762、1764",
        "tel": "",
        "jsd_type": 1,
        "distance": 7.47
    },
    {
        "id": 14578,
        "buy_car_type": null,
        "join_shop_name": "上海弘仁宝佳浦东新区置汇旭辉广场体验中心",
        "short_name": "比亚迪汽车弘仁宝佳（置汇旭辉广场店）",
        "join_shop_code": "BYDSH036J-TY-03",
        "lng": "121.554535",
        "lat": "31.243103",
        "address": "上海市浦东新区洋泾街道张杨路2389号旭辉广场S2-1F-02号商铺",
        "tel": "4009217988",
        "jsd_type": 1,
        "distance": 7.89
    },
    {
        "id": 13412,
        "buy_car_type": "",
        "join_shop_name": "上海卓景杨浦区万达广场体验中心",
        "short_name": "比亚迪汽车上海卓景（五角场万达店）",
        "join_shop_code": "BYDSH035J-TY-03",
        "lng": "121.513631",
        "lat": "31.301289",
        "address": "上海市杨浦区国宾路58号五角场万达广场1层1135/1136室",
        "tel": "021-58877088",
        "jsd_type": 1,
        "distance": 8.66
    },
    {
        "id": 11686,
        "buy_car_type": "汉EV/汉DM/宋Pro DM-i/元PLUS/秦PLUS DM-i/秦PLUS EV/第二代宋Pro/元Pro/2021款唐/2021款唐DM/唐DM-i/宋MAX升级版",
        "join_shop_name": "上海兴迪新能源汽车销售服务有限公司",
        "short_name": "比亚迪汽车王朝网（上海兴迪4S店）",
        "join_shop_code": "BYDSH033J",
        "lng": "121.3672",
        "lat": "31.23372",
        "address": "上海市普陀区同普路1388号",
        "tel": "021-52785558",
        "jsd_type": 1,
        "distance": 10.03
    },
    {
        "id": 11703,
        "buy_car_type": "汉EV/汉DM/宋Pro DM-i/元PLUS/秦PLUS DM-i/秦PLUS EV/第二代宋Pro/元Pro/2021款唐/2021款唐DM/唐DM-i/宋MAX升级版",
        "join_shop_name": "上海弘仁宝佳新能源汽车销售服务有限公司",
        "short_name": "比亚迪汽车王朝网（上海弘仁宝佳4S店）",
        "join_shop_code": "BYDSH036J",
        "lng": "121.466991",
        "lat": "31.324647",
        "address": "上海市江杨南路980号",
        "tel": "66291361/66291363/4009217988(集团总热线)",
        "jsd_type": 1,
        "distance": 10.35
    },
    {
        "id": 12656,
        "buy_car_type": "",
        "join_shop_name": "上海华裕浦东新区金桥国际体验中心",
        "short_name": "比亚迪汽车华裕（金桥国际店）",
        "join_shop_code": "BYDSH040J-TY-01",
        "lng": "121.57947",
        "lat": "31.256033",
        "address": "上海市浦东新区金桥国际商业广场张杨路3611弄7号111、112室",
        "tel": "021-50322338",
        "jsd_type": 1,
        "distance": 10.51
    },
    {
        "id": 14340,
        "buy_car_type": "汉EV/汉DM/宋Pro DM-i/秦PLUS DM-i/秦PLUS EV/第三代F3/第二代宋Pro/元Pro/2021款唐DM/唐DM-i/宋MAX升级版",
        "join_shop_name": "上海华裕金迪汽车销售有限公司",
        "short_name": "比亚迪汽车王朝网（华裕金迪浦东金桥国际商超店）",
        "join_shop_code": "BYDSH003SC",
        "lng": "121.579682",
        "lat": "31.256002",
        "address": "上海市浦东新区金桥国际商业广场张杨路3611弄7号111、112室",
        "tel": "",
        "jsd_type": 1,
        "distance": 10.53
    },
    {
        "id": 12030,
        "buy_car_type": "2021款宋经典版/秦Pro 超越版/宋plus/2021款e2/宋PLUS DM-i/宋PLUS EV/海豚",
        "join_shop_name": "上海弘仁汽车维修服务有限公司",
        "short_name": "比亚迪汽车海洋网（上海弘仁4S店）",
        "join_shop_code": "BYDESH003J",
        "lng": "121.545364",
        "lat": "31.314657",
        "address": "上海市杨浦区军工路1609号",
        "tel": "021-55271078",
        "jsd_type": 1,
        "distance": 11.53
    },
    {
        "id": 13277,
        "buy_car_type": "2021款宋经典版/秦Pro 超越版/宋plus/2021款e2/宋PLUS DM-i/宋PLUS EV/海豚",
        "join_shop_name": "上海华裕启迪汽车销售有限公司",
        "short_name": "比亚迪汽车海洋网（上海华裕启迪4S店）",
        "join_shop_code": "BYDESH009J",
        "lng": "121.559229",
        "lat": "31.156926",
        "address": "上海市浦东新区康杉路118号1号楼一层101室，二层201室",
        "tel": "021-50392008",
        "jsd_type": 1,
        "distance": 11.7
    },
    {
        "id": 13987,
        "buy_car_type": "秦Pro 超越版/2021款e2/宋PLUS DM-i/宋PLUS EV/海豚",
        "join_shop_name": "上海隆顺合汽车销售有限公司",
        "short_name": "比亚迪汽车海洋网（闵行万象城隆顺合城市展厅）",
        "join_shop_code": "BYDESH001CZ",
        "lng": "121.371479",
        "lat": "31.170062",
        "address": "上海市闵行区虹莘路3999号万象城MT1栋1层03单元",
        "tel": "021-60830276",
        "jsd_type": 1,
        "distance": 11.81
    },
    {
        "id": 11704,
        "buy_car_type": "汉EV/汉DM/宋Pro DM-i/元PLUS/秦PLUS DM-i/秦PLUS EV/第二代宋Pro/元Pro/2021款唐/2021款唐DM/唐DM-i/宋MAX升级版",
        "join_shop_name": "上海卓景汽车销售有限公司",
        "short_name": "比亚迪汽车王朝网（上海卓景4S店）",
        "join_shop_code": "BYDSH035J",
        "lng": "121.596259",
        "lat": "31.21173",
        "address": "上海浦东新区居里路108号乙单元",
        "tel": "021-58877088",
        "jsd_type": 1,
        "distance": 11.96
    },
    {
        "id": 13894,
        "buy_car_type": "汉EV/汉DM/宋Pro DM-i/秦PLUS DM-i/秦PLUS EV/第三代F3/第二代宋Pro/元Pro/2021款唐DM/唐DM-i/宋MAX升级版",
        "join_shop_name": "上海卓昇裕明汽车销售服务有限公司",
        "short_name": "比亚迪汽车王朝网（卓昇裕明宝山经纬汇商超店)",
        "join_shop_code": "BYDSH001SC",
        "lng": "121.399066",
        "lat": "31.325517",
        "address": "上海市宝山区经地路99弄1幢3号1楼3217-3218号",
        "tel": "",
        "jsd_type": 1,
        "distance": 12.56
    },
    {
        "id": 12926,
        "buy_car_type": "",
        "join_shop_name": "上海彤新徐汇区华泾天街体验中心",
        "short_name": "比亚迪汽车彤新（徐汇华泾天街店）",
        "join_shop_code": "BYDSH030J-TY-01",
        "lng": "121.455345",
        "lat": "31.119205",
        "address": "上海市徐汇区华泾路459号A-1F-C10、A-1F-C11号",
        "tel": "021-54998395",
        "jsd_type": 1,
        "distance": 12.62
    },
    {
        "id": 11690,
        "buy_car_type": "汉EV/汉DM/宋Pro DM-i/元PLUS/秦PLUS DM-i/秦PLUS EV/第二代宋Pro/元Pro/2021款唐/2021款唐DM/唐DM-i/宋MAX升级版",
        "join_shop_name": "上海君和汽车销售服务有限公司",
        "short_name": "比亚迪汽车王朝网（上海君和4S店）",
        "join_shop_code": "BYDSH019J",
        "lng": "121.345751",
        "lat": "31.2749",
        "address": "上海市普陀区金昌路1858号",
        "tel": "021-66275111",
        "jsd_type": 1,
        "distance": 12.98
    },
    {
        "id": 11687,
        "buy_car_type": "汉EV/汉DM/宋Pro DM-i/元PLUS/秦PLUS DM-i/秦PLUS EV/第二代宋Pro/元Pro/2021款唐/2021款唐DM/唐DM-i/宋MAX升级版",
        "join_shop_name": "上海富林新能源汽车销售服务有限公司",
        "short_name": "比亚迪汽车王朝网（上海富林4S店）",
        "join_shop_code": "BYDSH037J",
        "lng": "121.35326",
        "lat": "31.29229",
        "address": "上海市普陀区真陈路39号",
        "tel": "021-52841108",
        "jsd_type": 1,
        "distance": 13.2
    },
    {
        "id": 12654,
        "buy_car_type": "",
        "join_shop_name": "上海吉庆新能源闵行区漫游城体验中心",
        "short_name": "比亚迪汽车吉庆（漫游城店）",
        "join_shop_code": "BYDSH041J-TY-02",
        "lng": "121.39847",
        "lat": "31.131163",
        "address": "上海市闵行区闵虹路8号【中庚漫游城】L103-SP",
        "tel": "021-57662888",
        "jsd_type": 1,
        "distance": 13.22
    },
    {
        "id": 13434,
        "buy_car_type": "汉EV/汉DM/宋Pro DM-i/元PLUS/秦PLUS DM-i/秦PLUS EV/第二代宋Pro/元Pro/2021款唐/2021款唐DM/唐DM-i/宋MAX升级版",
        "join_shop_name": "上海联通新虹汽车销售有限公司",
        "short_name": "比亚迪汽车王朝网（上海联通新虹4S店）",
        "join_shop_code": "BYDSH043J",
        "lng": "121.330964",
        "lat": "31.222407",
        "address": "上海闵行区北翟路2621号",
        "tel": "",
        "jsd_type": 1,
        "distance": 13.51
    },
    {
        "id": 14379,
        "buy_car_type": "汉EV/汉DM/宋Pro DM-i/秦PLUS DM-i/秦PLUS EV/第三代F3/第二代宋Pro/元Pro/2021款唐DM/唐DM-i/宋MAX升级版",
        "join_shop_name": "上海环态昊迪汽车销售有限公司",
        "short_name": "比亚迪汽车王朝网（环态昊迪闵行宝龙城商超店）",
        "join_shop_code": "BYDSH004SC",
        "lng": "121.354724",
        "lat": "31.158388",
        "address": "上海市闵行区漕宝路3299弄16号一层M-S2-F1-003",
        "tel": "",
        "jsd_type": 1,
        "distance": 13.87
    },
    {
        "id": 11702,
        "buy_car_type": "汉EV/汉DM/宋Pro DM-i/元PLUS/秦PLUS DM-i/秦PLUS EV/第二代宋Pro/元Pro/2021款唐/2021款唐DM/唐DM-i/宋MAX升级版",
        "join_shop_name": "上海华帆旗开汽车销售服务有限公司",
        "short_name": "比亚迪汽车王朝网（上海华帆旗开4S店）",
        "join_shop_code": "BYDSH038J",
        "lng": "121.57883",
        "lat": "31.318916",
        "address": "上海市浦东新区浦东北路2190弄19号",
        "tel": "021-50677511",
        "jsd_type": 1,
        "distance": 14
    },
    {
        "id": 11709,
        "buy_car_type": "汉EV/汉DM/宋Pro DM-i/元PLUS/秦PLUS DM-i/秦PLUS EV/第二代宋Pro/元Pro/2021款唐/2021款唐DM/唐DM-i/宋MAX升级版",
        "join_shop_name": "上海弘仁锐豪汽车销售服务有限公司",
        "short_name": "比亚迪汽车王朝网（上海弘仁锐豪4S店）",
        "join_shop_code": "BYDSH011J",
        "lng": "121.5738749",
        "lat": "31.1390341",
        "address": "上海市沪南公路3021号",
        "tel": "4009217988",
        "jsd_type": 1,
        "distance": 14.1
    },
    {
        "id": 12349,
        "buy_car_type": "",
        "join_shop_name": "上海兴迪新能源嘉定区江桥万达广场体验中心",
        "short_name": "比亚迪汽车上海兴迪（江桥万达店）",
        "join_shop_code": "BYDSH033J-TY-01",
        "lng": "121.324531",
        "lat": "31.2404",
        "address": "海市嘉定区金沙江西路1051弄1-100号【上海江桥万达】内购物中心【1F】层【1056，1057，1058】号商铺",
        "tel": "021-52785558",
        "jsd_type": 1,
        "distance": 14.12
    },
    {
        "id": 12268,
        "buy_car_type": "",
        "join_shop_name": "上海华帆旗开浦东新区森兰花园城体验中心",
        "short_name": "比亚迪汽车华帆旗开（森兰花园城店）",
        "join_shop_code": "BYDSH038J-TY-02",
        "lng": "121.591178",
        "lat": "31.31309",
        "address": "上海市浦东新区启帆路517号1层（L105-6-7）号商铺",
        "tel": "021-50677511",
        "jsd_type": 1,
        "distance": 14.45
    },
    {
        "id": 14564,
        "buy_car_type": null,
        "join_shop_name": "上海华裕华耀汽车销售有限公司",
        "short_name": "比亚迪汽车海洋网（上海华裕华耀4S店）",
        "join_shop_code": "BYDESH016J",
        "lng": "121.623851",
        "lat": "31.253563",
        "address": "上海市浦东新区新金桥路999号",
        "tel": "15921660451",
        "jsd_type": 1,
        "distance": 14.58
    },
    {
        "id": 11689,
        "buy_car_type": "汉EV/汉DM/宋Pro DM-i/元PLUS/秦PLUS DM-i/秦PLUS EV/第二代宋Pro/元Pro/2021款唐/2021款唐DM/唐DM-i/宋MAX升级版",
        "join_shop_name": "上海彤新汽车租赁服务有限公司",
        "short_name": "比亚迪汽车王朝网（上海彤新4S店）",
        "join_shop_code": "BYDSH030J",
        "lng": "121.413974",
        "lat": "31.110072",
        "address": "上海市闵行区集心路188号",
        "tel": "021-54998395",
        "jsd_type": 1,
        "distance": 14.63
    },
    {
        "id": 12099,
        "buy_car_type": "2021款宋经典版/秦Pro 超越版/宋plus/2021款e2/宋PLUS DM-i/宋PLUS EV/海豚",
        "join_shop_name": "上海原鸿实业有限公司",
        "short_name": "比亚迪汽车海洋网（上海原鸿4S店）",
        "join_shop_code": "BYDESH001J",
        "lng": "121.413206",
        "lat": "31.108032",
        "address": "上海市闵行区集心路188号",
        "tel": "021-33885506",
        "jsd_type": 1,
        "distance": 14.87
    },
    {
        "id": 12223,
        "buy_car_type": "汉EV/汉DM/宋Pro DM-i/元PLUS/秦PLUS DM-i/秦PLUS EV/第二代宋Pro/元Pro/2021款唐/2021款唐DM/唐DM-i/宋MAX升级版",
        "join_shop_name": "上海华裕汽车销售有限公司",
        "short_name": "比亚迪汽车王朝网（上海华裕4S店）",
        "join_shop_code": "BYDSH040J",
        "lng": "121.62949",
        "lat": "31.25609",
        "address": "上海浦东金桥出口加工区金苏路238号",
        "tel": "021-50322338",
        "jsd_type": 1,
        "distance": 15.16
    },
    {
        "id": 13930,
        "buy_car_type": "2021款宋经典版/秦Pro 超越版/宋plus/2021款e2/宋PLUS DM-i/宋PLUS EV/海豚",
        "join_shop_name": "上海华帆书豪汽车销售服务有限公司",
        "short_name": "比亚迪汽车海洋网（上海华帆书豪4S店）",
        "join_shop_code": "BYDESH012J",
        "lng": "121.475322",
        "lat": "31.377031",
        "address": "上海市宝山区水产路1508号7幢一层",
        "tel": "021-56677511",
        "jsd_type": 1,
        "distance": 16.16
    },
    {
        "id": 11688,
        "buy_car_type": "汉EV/汉DM/宋Pro DM-i/元PLUS/秦PLUS DM-i/秦PLUS EV/第二代宋Pro/元Pro/2021款唐/2021款唐DM/唐DM-i/宋MAX升级版",
        "join_shop_name": "上海利港环态新能源汽车销售有限公司",
        "short_name": "比亚迪汽车王朝网（上海利港环态4S店）",
        "join_shop_code": "BYDSH031J",
        "lng": "121.431487",
        "lat": "31.086571",
        "address": "上海市闵行区双柏路1333弄19号",
        "tel": "021-64466067",
        "jsd_type": 1,
        "distance": 16.61
    },
    {
        "id": 14154,
        "buy_car_type": "秦Pro 超越版/2021款e2/宋PLUS DM-i/宋PLUS EV/海豚",
        "join_shop_name": "上海弘仁宝毅汽车销售服务有限公司",
        "short_name": "比亚迪汽车海洋网（黎安路弘仁宝毅城市展厅）",
        "join_shop_code": "BYDESH002CZ",
        "lng": "121.351695",
        "lat": "31.121377",
        "address": "上海市闵行区黎安路1399弄18号",
        "tel": "021-54865019/021-54865029",
        "jsd_type": 1,
        "distance": 16.82
    },
    {
        "id": 14201,
        "buy_car_type": "汉EV/汉DM/宋Pro DM-i/秦PLUS DM-i/秦PLUS EV/第三代F3/第二代宋Pro/元Pro/2021款唐DM/唐DM-i/宋MAX升级版",
        "join_shop_name": "上海弘仁东神汽车销售服务有限公司",
        "short_name": "比亚迪汽车王朝网（弘仁东神黎安路城市展厅）",
        "join_shop_code": "BYDSH001CZ",
        "lng": "121.351607",
        "lat": "31.121211",
        "address": "上海市闵行区黎安路1399弄20号",
        "tel": "",
        "jsd_type": 1,
        "distance": 16.84
    },
    {
        "id": 14217,
        "buy_car_type": "秦Pro 超越版/宋plus/2021款e2/宋PLUS DM-i/宋PLUS EV/海豚",
        "join_shop_name": "上海联通星诚新能源汽车销售有限公司",
        "short_name": "比亚迪汽车海洋网（上海联通星诚4S店）",
        "join_shop_code": "BYDESH015J",
        "lng": "121.520829",
        "lat": "31.085776",
        "address": "上海市闵行区江月路1059号2号楼B室",
        "tel": "021-67898858",
        "jsd_type": 1,
        "distance": 16.86
    },
    {
        "id": 13489,
        "buy_car_type": "",
        "join_shop_name": "上海利港环态宝山区宝杨宝龙广场体验中心",
        "short_name": "比亚迪汽车利港环态（宝龙广场店）",
        "join_shop_code": "BYDSH031J-TY-01",
        "lng": "121.481142",
        "lat": "31.396511",
        "address": "上海市宝山区同济路699号",
        "tel": "021-64466067",
        "jsd_type": 1,
        "distance": 18.34
    },
    {
        "id": 12175,
        "buy_car_type": "2021款宋经典版/秦Pro 超越版/宋plus/2021款e2/宋PLUS DM-i/宋PLUS EV/海豚",
        "join_shop_name": "上海君升新能源汽车服务有限公司",
        "short_name": "比亚迪汽车海洋网（上海君升4S店）",
        "join_shop_code": "BYDESH005J",
        "lng": "121.319655",
        "lat": "31.333158",
        "address": "上海市嘉定区浏翔公路1908号",
        "tel": "021-66951100",
        "jsd_type": 1,
        "distance": 18.4
    },
    {
        "id": 13701,
        "buy_car_type": "2021款宋经典版/秦Pro 超越版/宋plus/2021款e2/宋PLUS DM-i/宋PLUS EV/海豚",
        "join_shop_name": "上海宇迪辉驰汽车销售有限公司",
        "short_name": "比亚迪汽车海洋网（上海宇迪辉驰4S店）",
        "join_shop_code": "BYDESH011J",
        "lng": "121.389802",
        "lat": "31.383874",
        "address": "上海市宝山区潘泾路1101号",
        "tel": "021-58877088",
        "jsd_type": 1,
        "distance": 18.66
    },
    {
        "id": 13567,
        "buy_car_type": "2021款宋经典版/秦Pro 超越版/宋plus/2021款e2/宋PLUS DM-i/宋PLUS EV/海豚",
        "join_shop_name": "上海众深依旺汽车销售服务有限公司",
        "short_name": "比亚迪汽车海洋网（上海众深依旺4S店）",
        "join_shop_code": "BYDESH010J",
        "lng": "121.295148",
        "lat": "31.126374",
        "address": "上海市松江区泗泾镇九干路50号5幢101、102、103室",
        "tel": "021-67892388",
        "jsd_type": 1,
        "distance": 20.55
    },
    {
        "id": 13868,
        "buy_car_type": "汉EV/汉DM/宋Pro DM-i/元PLUS/秦PLUS DM-i/秦PLUS EV/第三代F3/第二代宋Pro/元Pro/2021款唐DM/唐DM-i/宋MAX升级版",
        "join_shop_name": "上海君和迪生汽车销售服务有限公司",
        "short_name": "比亚迪汽车王朝网（上海君和迪生4S店）",
        "join_shop_code": "BYDSH044J",
        "lng": "121.587794",
        "lat": "31.070292",
        "address": "上海市浦东新区航头镇沪南路4789弄318号1-2层",
        "tel": "021-68040118",
        "jsd_type": 1,
        "distance": 21.03
    },
    {
        "id": 13931,
        "buy_car_type": "2021款宋经典版/秦Pro 超越版/宋plus/2021款e2/宋PLUS DM-i/宋PLUS EV/海豚",
        "join_shop_name": "上海垒福汽车销售服务有限公司",
        "short_name": "比亚迪汽车海洋网（上海垒福4S店）",
        "join_shop_code": "BYDESH013J",
        "lng": "121.253788",
        "lat": "31.275135",
        "address": "上海市嘉定区曹安公路4215号",
        "tel": "021-59922980",
        "jsd_type": 1,
        "distance": 21.36
    },
    {
        "id": 13278,
        "buy_car_type": "汉EV/汉DM/宋Pro DM-i/元PLUS/秦PLUS DM-i/秦PLUS EV/第二代宋Pro/元Pro/2021款唐/2021款唐DM/唐DM-i/宋MAX升级版",
        "join_shop_name": "上海昕鑫汽车销售服务有限公司",
        "short_name": "比亚迪汽车王朝网（上海昕鑫4S店）",
        "join_shop_code": "BYDSH042J",
        "lng": "121.353493",
        "lat": "31.410862",
        "address": "上海市宝山区月罗路2368号2幢",
        "tel": "021-66865688",
        "jsd_type": 1,
        "distance": 22.91
    },
    {
        "id": 13488,
        "buy_car_type": "",
        "join_shop_name": "上海卓景闵行区浦江万达体验中心",
        "short_name": "比亚迪汽车上海卓景（浦江万达店）",
        "join_shop_code": "BYDSH035J-TY-05",
        "lng": "121.511593",
        "lat": "31.027091",
        "address": "上海闵行区永跃路360号1057室",
        "tel": "021-58877088",
        "jsd_type": 1,
        "distance": 23.05
    },
    {
        "id": 13392,
        "buy_car_type": "",
        "join_shop_name": "上海卓景闵行区马桥万达体验中心",
        "short_name": "比亚迪汽车上海卓景（马桥万达店）",
        "join_shop_code": "BYDSH035J-TY-04",
        "lng": "121.373459",
        "lat": "31.023605",
        "address": "上海市闵行区富岩路121号1007室",
        "tel": "021-58877088",
        "jsd_type": 1,
        "distance": 24.99
    },
    {
        "id": 13973,
        "buy_car_type": "2021款宋经典版/秦Pro 超越版/宋plus/2021款e2/宋PLUS DM-i/宋PLUS EV/海豚",
        "join_shop_name": "上海富林迪耀新能源汽车销售有限公司",
        "short_name": "比亚迪汽车海洋网（上海富林迪耀4S店）",
        "join_shop_code": "BYDESH014J",
        "lng": "121.227423",
        "lat": "31.368491",
        "address": "上海市嘉定区沪宜公路4491号4幢",
        "tel": "021-39977855",
        "jsd_type": 1,
        "distance": 27.82
    },
    {
        "id": 12914,
        "buy_car_type": "",
        "join_shop_name": "上海吉庆新能源松江区万达广场体验中心",
        "short_name": "比亚迪汽车吉庆（松江万达店）",
        "join_shop_code": "BYDSH041J-TY-01",
        "lng": "121.242935",
        "lat": "31.057546",
        "address": "上海市松江区广富林路658号万达商场1007铺位",
        "tel": "021-57662888",
        "jsd_type": 1,
        "distance": 29.2
    },
    {
        "id": 11705,
        "buy_car_type": "汉EV/汉DM/宋Pro DM-i/元PLUS/秦PLUS DM-i/秦PLUS EV/第二代宋Pro/元Pro/2021款唐/2021款唐DM/唐DM-i/宋MAX升级版",
        "join_shop_name": "上海众深汽车销售服务有限公司",
        "short_name": "比亚迪汽车王朝网（上海众深4S店）",
        "join_shop_code": "BYDSH028J",
        "lng": "121.17567",
        "lat": "31.160785",
        "address": "上海市青浦区盈港东路6655号",
        "tel": "021-59701969",
        "jsd_type": 1,
        "distance": 29.33
    },
    {
        "id": 11707,
        "buy_car_type": "汉EV/汉DM/宋Pro DM-i/元PLUS/秦PLUS DM-i/秦PLUS EV/第二代宋Pro/元Pro/2021款唐/2021款唐DM/唐DM-i/宋MAX升级版",
        "join_shop_name": "上海联通汽车销售有限公司",
        "short_name": "比亚迪汽车王朝网（上海联通4S店）",
        "join_shop_code": "BYDSH012J",
        "lng": "121.168615",
        "lat": "31.282378",
        "address": "上海市嘉定区安驰路829号",
        "tel": "021-62395999",
        "jsd_type": 1,
        "distance": 29.44
    },
    {
        "id": 11691,
        "buy_car_type": "汉EV/汉DM/宋Pro DM-i/元PLUS/秦PLUS DM-i/秦PLUS EV/第二代宋Pro/元Pro/2021款唐/2021款唐DM/唐DM-i/宋MAX升级版",
        "join_shop_name": "上海汇羿汽车销售服务有限公司",
        "short_name": "比亚迪汽车王朝网（上海汇羿4S店）",
        "join_shop_code": "BYDSHX045J",
        "lng": "121.6888",
        "lat": "31.03631",
        "address": "上海市浦东新区宣桥镇沪南公路8615号",
        "tel": "021-58187111",
        "jsd_type": 1,
        "distance": 29.92
    },
    {
        "id": 12155,
        "buy_car_type": "2021款宋经典版/秦Pro 超越版/宋plus/2021款e2/宋PLUS DM-i/宋PLUS EV/海豚",
        "join_shop_name": "上海汇建汽车销售服务有限公司",
        "short_name": "比亚迪汽车海洋网（上海汇建4S店）",
        "join_shop_code": "BYDESH004J",
        "lng": "121.68869",
        "lat": "31.036256",
        "address": "上海市浦东新区沪南公路8615号",
        "tel": "021-58187111",
        "jsd_type": 1,
        "distance": 29.92
    },
    {
        "id": 12230,
        "buy_car_type": "汉EV/汉DM/宋Pro DM-i/元PLUS/秦PLUS DM-i/秦PLUS EV/第二代宋Pro/元Pro/2021款唐/2021款唐DM/唐DM-i/宋MAX升级版",
        "join_shop_name": "上海吉庆新能源汽车销售有限公司",
        "short_name": "比亚迪汽车王朝网（上海吉庆4S店）",
        "join_shop_code": "BYDSH041J",
        "lng": "121.257605",
        "lat": "31.032691",
        "address": "上海市松江区沪松路999号6幢104室",
        "tel": "021-33551117",
        "jsd_type": 1,
        "distance": 30.14
    },
    {
        "id": 12098,
        "buy_car_type": "2021款宋经典版/秦Pro 超越版/宋plus/2021款e2/宋PLUS DM-i/宋PLUS EV/海豚",
        "join_shop_name": "上海顺迪新能源汽车销售有限公司",
        "short_name": "比亚迪汽车海洋网（上海顺迪4S店）",
        "join_shop_code": "BYDESH002J",
        "lng": "121.256821",
        "lat": "31.032761",
        "address": "上海市松江区沪松路999号6幢103室",
        "tel": "021-57662888",
        "jsd_type": 1,
        "distance": 30.19
    },
    {
        "id": 11948,
        "buy_car_type": "汉EV/汉DM/宋Pro DM-i/元PLUS/秦PLUS DM-i/秦PLUS EV/第二代宋Pro/元Pro/2021款唐/2021款唐DM/唐DM-i/宋MAX升级版",
        "join_shop_name": "上海联通宝亭汽车销售有限公司",
        "short_name": "比亚迪汽车王朝网（上海联通宝亭4S店）",
        "join_shop_code": "BYDSH032J",
        "lng": "121.4457",
        "lat": "30.958426",
        "address": "上海市奉贤区沪杭公路1095号A幢",
        "tel": "021-37567269",
        "jsd_type": 1,
        "distance": 30.5
    },
    {
        "id": 12235,
        "buy_car_type": "2021款宋经典版/秦Pro 超越版/宋plus/2021款e2/宋PLUS DM-i/宋PLUS EV/海豚",
        "join_shop_name": "上海联通浦悦汽车销售有限公司",
        "short_name": "比亚迪汽车海洋网（上海联通浦悦4S店）",
        "join_shop_code": "BYDESH008J",
        "lng": "121.124052",
        "lat": "31.186656",
        "address": "上海市青浦区北青公路9665号",
        "tel": "021-69236969",
        "jsd_type": 1,
        "distance": 33.53
    },
    {
        "id": 12979,
        "buy_car_type": "",
        "join_shop_name": "上海众深青浦区万达茂体验中心",
        "short_name": "比亚迪汽车众深（万达茂店）",
        "join_shop_code": "BYDSH028J-TY-01",
        "lng": "121.082797",
        "lat": "31.133394",
        "address": "上海市青浦区淀山湖大道851号万达茂商场1F层A区1030号",
        "tel": "021-59701969",
        "jsd_type": 1,
        "distance": 38.66
    },
    {
        "id": 12176,
        "buy_car_type": "2021款宋经典版/秦Pro 超越版/宋plus/2021款e2/宋PLUS DM-i/宋PLUS EV/海豚",
        "join_shop_name": "上海叶红工贸有限公司",
        "short_name": "比亚迪汽车海洋网（上海叶红4S店）",
        "join_shop_code": "BYDESH006J",
        "lng": "121.345715",
        "lat": "30.848657",
        "address": "上海市金山区亭林镇亭卫公路6618-9号",
        "tel": "021-57273833",
        "jsd_type": 1,
        "distance": 44.28
    },
    {
        "id": 12198,
        "buy_car_type": "汉EV/汉DM/宋Pro DM-i/元PLUS/秦PLUS DM-i/秦PLUS EV/第二代宋Pro/元Pro/2021款唐/2021款唐DM/唐DM-i/宋MAX升级版",
        "join_shop_name": "上海贸驰汽车销售服务有限公司",
        "short_name": "比亚迪汽车王朝网（上海贸驰4S店）",
        "join_shop_code": "BYDSH039J",
        "lng": "121.357782",
        "lat": "30.781584",
        "address": "上海市金山区亭卫公路2285号",
        "tel": "021-37918888",
        "jsd_type": 1,
        "distance": 51.23
    },
    {
        "id": 12915,
        "buy_car_type": "",
        "join_shop_name": "上海贸驰金山区万达广场体验中心",
        "short_name": "比亚迪汽车贸驰（万达广场店）",
        "join_shop_code": "BYDSH039J-TY-01",
        "lng": "121.334957",
        "lat": "30.75429",
        "address": "上海市金山区龙皓路1088号1F层1009A",
        "tel": "021-37918888",
        "jsd_type": 1,
        "distance": 54.68
    },
    {
        "id": 14614,
        "buy_car_type": null,
        "join_shop_name": "上海洲迪汽车销售服务有限公司",
        "short_name": "比亚迪汽车王朝网（洲迪金山万达商超店）",
        "join_shop_code": "BYDSH006SC",
        "lng": "121.335935",
        "lat": "30.754151",
        "address": "上海市金山区万达广场1F-1009A号",
        "tel": "",
        "jsd_type": 1,
        "distance": 54.68
    },
    {
        "id": 12491,
        "buy_car_type": null,
        "join_shop_name": "上海华帆旗开汽车销售服务有限公司源深路城市展厅",
        "short_name": "",
        "join_shop_code": "BYDSH024JZT",
        "lng": "",
        "lat": "",
        "address": "上海市浦东新区源深路388号",
        "tel": "021-58383066",
        "jsd_type": 1,
        "distance": 99999
    }
]